{"type": "FeatureCollection", "features": [{"type":"Feature","geometry":{"type":"Point","coordinates":[3.126422,50.650085]},"properties":{"cartodb_id":2,"objectid":22,"commune":"VILLENEUVE D'ASCQ","insee":"009","nomstation":"LES PRES","x":655870,"y":328217,"url":"http://www.transpole.fr/fr/metro_tram/lignes-metro.aspx","url_mel":"http://www.lillemetropole.fr/mel/institution/competences/transports-mobilite/transports-en-commun.html"}},{"type":"Feature","geometry":{"type":"Point","coordinates":[3.119122,50.642096]},"properties":{"cartodb_id":1,"objectid":21,"commune":"MONS EN BAROEUL","insee":"410","nomstation":"FORT DE MONS","x":655363,"y":327323,"url":"http://www.transpole.fr/fr/metro_tram/lignes-metro.aspx","url_mel":"http://www.lillemetropole.fr/mel/institution/competences/transports-mobilite/transports-en-commun.html"}},{"type":"Feature","geometry":{"type":"Point","coordinates":[3.129817,50.66386]},"properties":{"cartodb_id":3,"objectid":24,"commune":"WASQUEHAL","insee":"646","nomstation":"WASQUEHAL PAVE DE LILLE","x":656094,"y":329752,"url":"http://www.transpole.fr/fr/metro_tram/lignes-metro.aspx","url_mel":"http://www.lillemetropole.fr/mel/institution/competences/transports-mobilite/transports-en-commun.html"}},{"type":"Feature","geometry":{"type":"Point","coordinates":[3.131485,50.669764]},"properties":{"cartodb_id":4,"objectid":25,"commune":"WASQUEHAL","insee":"646","nomstation":"WASQUEHAL HOTEL DE VILLE","x":656205,"y":330410,"url":"http://www.transpole.fr/fr/metro_tram/lignes-metro.aspx","url_mel":"http://www.lillemetropole.fr/mel/institution/competences/transports-mobilite/transports-en-commun.html"}},{"type":"Feature","geometry":{"type":"Point","coordinates":[3.13479,50.658452]},"properties":{"cartodb_id":5,"objectid":23,"commune":"VILLENEUVE D'ASCQ","insee":"009","nomstation":"JEAN JAURES","x":656452,"y":329154,"url":"http://www.transpole.fr/fr/metro_tram/lignes-metro.aspx","url_mel":"http://www.lillemetropole.fr/mel/institution/competences/transports-mobilite/transports-en-commun.html"}},{"type":"Feature","geometry":{"type":"Point","coordinates":[3.146209,50.674735]},"properties":{"cartodb_id":6,"objectid":26,"commune":"CROIX","insee":"163","nomstation":"CROIX CENTRE","x":657240,"y":330974,"url":"http://www.transpole.fr/fr/metro_tram/lignes-metro.aspx","url_mel":"http://www.lillemetropole.fr/mel/institution/competences/transports-mobilite/transports-en-commun.html"}},{"type":"Feature","geometry":{"type":"Point","coordinates":[3.156178,50.679485]},"properties":{"cartodb_id":7,"objectid":27,"commune":"CROIX","insee":"163","nomstation":"CROIX MAIRIE","x":657939,"y":331510,"url":"http://www.transpole.fr/fr/metro_tram/lignes-metro.aspx","url_mel":"http://www.lillemetropole.fr/mel/institution/competences/transports-mobilite/transports-en-commun.html"}},{"type":"Feature","geometry":{"type":"Point","coordinates":[3.15666,50.725829]},"properties":{"cartodb_id":8,"objectid":38,"commune":"TOURCOING","insee":"599","nomstation":"COLBERT","x":657917,"y":336666,"url":"http://www.transpole.fr/fr/metro_tram/lignes-metro.aspx","url_mel":"http://www.lillemetropole.fr/mel/institution/competences/transports-mobilite/transports-en-commun.html"}},{"type":"Feature","geometry":{"type":"Point","coordinates":[3.157156,50.732441]},"properties":{"cartodb_id":9,"objectid":39,"commune":"TOURCOING","insee":"599","nomstation":"PHALEMPIN","x":657944,"y":337402,"url":"http://www.transpole.fr/fr/metro_tram/lignes-metro.aspx","url_mel":"http://www.lillemetropole.fr/mel/institution/competences/transports-mobilite/transports-en-commun.html"}},{"type":"Feature","geometry":{"type":"Point","coordinates":[3.160003,50.720943]},"properties":{"cartodb_id":10,"objectid":37,"commune":"TOURCOING","insee":"599","nomstation":"TOURCOING CENTRE","x":658159,"y":336125,"url":"http://www.transpole.fr/fr/metro_tram/lignes-metro.aspx","url_mel":"http://www.lillemetropole.fr/mel/institution/competences/transports-mobilite/transports-en-commun.html"}},{"type":"Feature","geometry":{"type":"Point","coordinates":[3.160158,50.711036]},"properties":{"cartodb_id":11,"objectid":35,"commune":"TOURCOING","insee":"599","nomstation":"CARLIERS","x":658182,"y":335023,"url":"http://www.transpole.fr/fr/metro_tram/lignes-metro.aspx","url_mel":"http://www.lillemetropole.fr/mel/institution/competences/transports-mobilite/transports-en-commun.html"}},{"type":"Feature","geometry":{"type":"Point","coordinates":[3.160503,50.704759]},"properties":{"cartodb_id":12,"objectid":34,"commune":"TOURCOING","insee":"599","nomstation":"MERCURE","x":658214,"y":334325,"url":"http://www.transpole.fr/fr/metro_tram/lignes-metro.aspx","url_mel":"http://www.lillemetropole.fr/mel/institution/competences/transports-mobilite/transports-en-commun.html"}},{"type":"Feature","geometry":{"type":"Point","coordinates":[3.160986,50.70071]},"properties":{"cartodb_id":13,"objectid":33,"commune":"ROUBAIX","insee":"512","nomstation":"ALSACE","x":658253,"y":333875,"url":"http://www.transpole.fr/fr/metro_tram/lignes-metro.aspx","url_mel":"http://www.lillemetropole.fr/mel/institution/competences/transports-mobilite/transports-en-commun.html"}},{"type":"Feature","geometry":{"type":"Point","coordinates":[3.162615,50.717275]},"properties":{"cartodb_id":14,"objectid":36,"commune":"TOURCOING","insee":"599","nomstation":"TOURCOING SEBASTOPOLE","x":658348,"y":335719,"url":"http://www.transpole.fr/fr/metro_tram/lignes-metro.aspx","url_mel":"http://www.lillemetropole.fr/mel/institution/competences/transports-mobilite/transports-en-commun.html"}},{"type":"Feature","geometry":{"type":"Point","coordinates":[3.163375,50.684154]},"properties":{"cartodb_id":15,"objectid":28,"commune":"ROUBAIX","insee":"512","nomstation":"EPEULE MONTESQUIEU","x":658442,"y":332035,"url":"http://www.transpole.fr/fr/metro_tram/lignes-metro.aspx","url_mel":"http://www.lillemetropole.fr/mel/institution/competences/transports-mobilite/transports-en-commun.html"}},{"type":"Feature","geometry":{"type":"Point","coordinates":[3.16398,50.695395]},"properties":{"cartodb_id":16,"objectid":32,"commune":"ROUBAIX","insee":"512","nomstation":"GARE JEAN LEBAS","x":658471,"y":333286,"url":"http://www.transpole.fr/fr/metro_tram/lignes-metro.aspx","url_mel":"http://www.lillemetropole.fr/mel/institution/competences/transports-mobilite/transports-en-commun.html"}},{"type":"Feature","geometry":{"type":"Point","coordinates":[3.169833,50.686932]},"properties":{"cartodb_id":17,"objectid":29,"commune":"ROUBAIX","insee":"512","nomstation":"ROUBAIX CHARLES DE GAULLE","x":658895,"y":332349,"url":"http://www.transpole.fr/fr/metro_tram/lignes-metro.aspx","url_mel":"http://www.lillemetropole.fr/mel/institution/competences/transports-mobilite/transports-en-commun.html"}},{"type":"Feature","geometry":{"type":"Point","coordinates":[3.170616,50.736815]},"properties":{"cartodb_id":18,"objectid":40,"commune":"TOURCOING","insee":"599","nomstation":"PONT DE NEUVILLE","x":658889,"y":337899,"url":"http://www.transpole.fr/fr/metro_tram/lignes-metro.aspx","url_mel":"http://www.lillemetropole.fr/mel/institution/competences/transports-mobilite/transports-en-commun.html"}},{"type":"Feature","geometry":{"type":"Point","coordinates":[3.174743,50.691814]},"properties":{"cartodb_id":19,"objectid":31,"commune":"ROUBAIX","insee":"512","nomstation":"ROUBAIX GRAND PLACE","x":659236,"y":332896,"url":"http://www.transpole.fr/fr/metro_tram/lignes-metro.aspx","url_mel":"http://www.lillemetropole.fr/mel/institution/competences/transports-mobilite/transports-en-commun.html"}},{"type":"Feature","geometry":{"type":"Point","coordinates":[3.17934,50.69082]},"properties":{"cartodb_id":20,"objectid":30,"commune":"ROUBAIX","insee":"512","nomstation":"EUROTELEPORT","x":659562,"y":332789,"url":"http://www.transpole.fr/fr/metro_tram/lignes-metro.aspx","url_mel":"http://www.lillemetropole.fr/mel/institution/competences/transports-mobilite/transports-en-commun.html"}},{"type":"Feature","geometry":{"type":"Point","coordinates":[3.179673,50.739475]},"properties":{"cartodb_id":21,"objectid":41,"commune":"TOURCOING","insee":"599","nomstation":"BOURGOGNE","x":659525,"y":338202,"url":"http://www.transpole.fr/fr/metro_tram/lignes-metro.aspx","url_mel":"http://www.lillemetropole.fr/mel/institution/competences/transports-mobilite/transports-en-commun.html"}},{"type":"Feature","geometry":{"type":"Point","coordinates":[3.180888,50.743404]},"properties":{"cartodb_id":22,"objectid":42,"commune":"TOURCOING","insee":"599","nomstation":"C.H. DRON","x":659606,"y":338640,"url":"http://www.transpole.fr/fr/metro_tram/lignes-metro.aspx","url_mel":"http://www.lillemetropole.fr/mel/institution/competences/transports-mobilite/transports-en-commun.html"}},{"type":"Feature","geometry":{"type":"Point","coordinates":[2.974284,50.652123]},"properties":{"cartodb_id":23,"objectid":16,"commune":"LOMME (LILLE)","insee":"355","nomstation":"SAINT PHILIBERT","x":645108,"y":328342,"url":"http://www.transpole.fr/fr/metro_tram/lignes-metro.aspx","url_mel":"http://www.lillemetropole.fr/mel/institution/competences/transports-mobilite/transports-en-commun.html"}},{"type":"Feature","geometry":{"type":"Point","coordinates":[2.985197,50.645592]},"properties":{"cartodb_id":24,"objectid":15,"commune":"LOMME (LILLE)","insee":"355","nomstation":"BOURG","x":645886,"y":327622,"url":"http://www.transpole.fr/fr/metro_tram/lignes-metro.aspx","url_mel":"http://www.lillemetropole.fr/mel/institution/competences/transports-mobilite/transports-en-commun.html"}},{"type":"Feature","geometry":{"type":"Point","coordinates":[2.99523,50.646328]},"properties":{"cartodb_id":25,"objectid":14,"commune":"LOMME (LILLE)","insee":"355","nomstation":"MAISON DES ENFANTS","x":646595,"y":327710,"url":"http://www.transpole.fr/fr/metro_tram/lignes-metro.aspx","url_mel":"http://www.lillemetropole.fr/mel/institution/competences/transports-mobilite/transports-en-commun.html"}},{"type":"Feature","geometry":{"type":"Point","coordinates":[3.007409,50.646753]},"properties":{"cartodb_id":26,"objectid":13,"commune":"LOMME (LILLE)","insee":"355","nomstation":"MITTERIE","x":647456,"y":327765,"url":"http://www.transpole.fr/fr/metro_tram/lignes-metro.aspx","url_mel":"http://www.lillemetropole.fr/mel/institution/competences/transports-mobilite/transports-en-commun.html"}},{"type":"Feature","geometry":{"type":"Point","coordinates":[3.013922,50.644398]},"properties":{"cartodb_id":27,"objectid":12,"commune":"LOMME (LILLE)","insee":"355","nomstation":"PONT SUPERIEUR","x":647919,"y":327507,"url":"http://www.transpole.fr/fr/metro_tram/lignes-metro.aspx","url_mel":"http://www.lillemetropole.fr/mel/institution/competences/transports-mobilite/transports-en-commun.html"}},{"type":"Feature","geometry":{"type":"Point","coordinates":[3.018718,50.640666]},"properties":{"cartodb_id":28,"objectid":11,"commune":"LOMME (LILLE)","insee":"355","nomstation":"LOMME LAMBERSART","x":648262,"y":327095,"url":"http://www.transpole.fr/fr/metro_tram/lignes-metro.aspx","url_mel":"http://www.lillemetropole.fr/mel/institution/competences/transports-mobilite/transports-en-commun.html"}},{"type":"Feature","geometry":{"type":"Point","coordinates":[3.024367,50.637353]},"properties":{"cartodb_id":29,"objectid":10,"commune":"LILLE","insee":"350","nomstation":"CANTELEU","x":648665,"y":326730,"url":"http://www.transpole.fr/fr/metro_tram/lignes-metro.aspx","url_mel":"http://www.lillemetropole.fr/mel/institution/competences/transports-mobilite/transports-en-commun.html"}},{"type":"Feature","geometry":{"type":"Point","coordinates":[3.030791,50.633909]},"properties":{"cartodb_id":30,"objectid":9,"commune":"LILLE","insee":"350","nomstation":"BOIS BLANC","x":649123,"y":326351,"url":"http://www.transpole.fr/fr/metro_tram/lignes-metro.aspx","url_mel":"http://www.lillemetropole.fr/mel/institution/competences/transports-mobilite/transports-en-commun.html"}},{"type":"Feature","geometry":{"type":"Point","coordinates":[3.03575,50.629897]},"properties":{"cartodb_id":31,"objectid":8,"commune":"LILLE","insee":"350","nomstation":"PORT DE LILLE","x":649478,"y":325908,"url":"http://www.transpole.fr/fr/metro_tram/lignes-metro.aspx","url_mel":"http://www.lillemetropole.fr/mel/institution/competences/transports-mobilite/transports-en-commun.html"}},{"type":"Feature","geometry":{"type":"Point","coordinates":[3.040275,50.626203]},"properties":{"cartodb_id":32,"objectid":7,"commune":"LILLE","insee":"350","nomstation":"CORMONTAIGNE","x":649802,"y":325500,"url":"http://www.transpole.fr/fr/metro_tram/lignes-metro.aspx","url_mel":"http://www.lillemetropole.fr/mel/institution/competences/transports-mobilite/transports-en-commun.html"}},{"type":"Feature","geometry":{"type":"Point","coordinates":[3.045442,50.622046]},"properties":{"cartodb_id":33,"objectid":6,"commune":"LILLE","insee":"350","nomstation":"MONTEBELLO","x":650172,"y":325041,"url":"http://www.transpole.fr/fr/metro_tram/lignes-metro.aspx","url_mel":"http://www.lillemetropole.fr/mel/institution/competences/transports-mobilite/transports-en-commun.html"}},{"type":"Feature","geometry":{"type":"Point","coordinates":[3.050263,50.618421]},"properties":{"cartodb_id":34,"objectid":43,"commune":"LILLE","insee":"350","nomstation":"PORTE DES POSTES","x":650517,"y":324641,"url":"http://www.transpole.fr/fr/metro_tram/lignes-metro.aspx","url_mel":"http://www.lillemetropole.fr/mel/institution/competences/transports-mobilite/transports-en-commun.html"}},{"type":"Feature","geometry":{"type":"Point","coordinates":[3.062276,50.617602]},"properties":{"cartodb_id":35,"objectid":5,"commune":"LILLE","insee":"350","nomstation":"PORTE D'ARRAS","x":651368,"y":324558,"url":"http://www.transpole.fr/fr/metro_tram/lignes-metro.aspx","url_mel":"http://www.lillemetropole.fr/mel/institution/competences/transports-mobilite/transports-en-commun.html"}},{"type":"Feature","geometry":{"type":"Point","coordinates":[3.070648,50.63286]},"properties":{"cartodb_id":36,"objectid":1,"commune":"LILLE","insee":"350","nomstation":"MAIRIE DE LILLE","x":651944,"y":326261,"url":"http://www.transpole.fr/fr/metro_tram/lignes-metro.aspx","url_mel":"http://www.lillemetropole.fr/mel/institution/competences/transports-mobilite/transports-en-commun.html"}},{"type":"Feature","geometry":{"type":"Point","coordinates":[3.071015,50.637469]},"properties":{"cartodb_id":37,"objectid":44,"commune":"LILLE","insee":"350","nomstation":"GARE LILLE FLANDRES","x":651965,"y":326774,"url":"http://www.transpole.fr/fr/metro_tram/lignes-metro.aspx","url_mel":"http://www.lillemetropole.fr/mel/institution/competences/transports-mobilite/transports-en-commun.html"}},{"type":"Feature","geometry":{"type":"Point","coordinates":[3.072131,50.618054]},"properties":{"cartodb_id":38,"objectid":4,"commune":"LILLE","insee":"350","nomstation":"PORTE DE DOUAI","x":652065,"y":324615,"url":"http://www.transpole.fr/fr/metro_tram/lignes-metro.aspx","url_mel":"http://www.lillemetropole.fr/mel/institution/competences/transports-mobilite/transports-en-commun.html"}},{"type":"Feature","geometry":{"type":"Point","coordinates":[3.074923,50.629651]},"properties":{"cartodb_id":39,"objectid":2,"commune":"LILLE","insee":"350","nomstation":"LILLE GRAND PALAIS","x":652250,"y":325907,"url":"http://www.transpole.fr/fr/metro_tram/lignes-metro.aspx","url_mel":"http://www.lillemetropole.fr/mel/institution/competences/transports-mobilite/transports-en-commun.html"}},{"type":"Feature","geometry":{"type":"Point","coordinates":[3.076343,50.639215]},"properties":{"cartodb_id":40,"objectid":17,"commune":"LILLE","insee":"350","nomstation":"GARE LILLE EUROPE","x":652340,"y":326972,"url":"http://www.transpole.fr/fr/metro_tram/lignes-metro.aspx","url_mel":"http://www.lillemetropole.fr/mel/institution/competences/transports-mobilite/transports-en-commun.html"}},{"type":"Feature","geometry":{"type":"Point","coordinates":[3.078875,50.62106]},"properties":{"cartodb_id":41,"objectid":3,"commune":"LILLE","insee":"350","nomstation":"PORTE DE VALENCIENNES","x":652539,"y":324954,"url":"http://www.transpole.fr/fr/metro_tram/lignes-metro.aspx","url_mel":"http://www.lillemetropole.fr/mel/institution/competences/transports-mobilite/transports-en-commun.html"}},{"type":"Feature","geometry":{"type":"Point","coordinates":[3.08869,50.64232]},"properties":{"cartodb_id":42,"objectid":18,"commune":"LILLE","insee":"350","nomstation":"SAINT MAURICE PELLEVOISIN","x":653210,"y":327326,"url":"http://www.transpole.fr/fr/metro_tram/lignes-metro.aspx","url_mel":"http://www.lillemetropole.fr/mel/institution/competences/transports-mobilite/transports-en-commun.html"}},{"type":"Feature","geometry":{"type":"Point","coordinates":[3.099275,50.642127]},"properties":{"cartodb_id":43,"objectid":19,"commune":"MONS EN BAROEUL","insee":"410","nomstation":"MONS SART","x":653959,"y":327312,"url":"http://www.transpole.fr/fr/metro_tram/lignes-metro.aspx","url_mel":"http://www.lillemetropole.fr/mel/institution/competences/transports-mobilite/transports-en-commun.html"}},{"type":"Feature","geometry":{"type":"Point","coordinates":[3.110065,50.642336]},"properties":{"cartodb_id":44,"objectid":20,"commune":"MONS EN BAROEUL","insee":"410","nomstation":"MAIRIE DE MONS","x":654722,"y":327343,"url":"http://www.transpole.fr/fr/metro_tram/lignes-metro.aspx","url_mel":"http://www.lillemetropole.fr/mel/institution/competences/transports-mobilite/transports-en-commun.html"}}]}